{"type":"Feature","properties":{"OBJECTID":1,"SL_NO":0,"ZN":1,"WARD":0,"LAT":13.15775,"LONG_":80.28771,"LOCATION":"Sathankadu in Div-7","TYPE":"Ordinary Compost"},"geometry":{"type":"Point","coordinates":[80.2877099999243,13.1577499998063]}}
{"type":"Feature","properties":{"OBJECTID":2,"SL_NO":0,"ZN":2,"WARD":0,"LAT":13.170779,"LONG_":80.23634,"LOCATION":"Samuvel Burial Ground","TYPE":"Ordinary Compost"},"geometry":{"type":"Point","coordinates":[80.2363400003614,13.1707789996927]}}
{"type":"Feature","properties":{"OBJECTID":3,"SL_NO":0,"ZN":2,"WARD":0,"LAT":13.178062,"LONG_":80.253151,"LOCATION":"Arulanandam Nagar","TYPE":"Ordinary Compost"},"geometry":{"type":"Point","coordinates":[80.2531509995494,13.1780620001669]}}
{"type":"Feature","properties":{"OBJECTID":4,"SL_NO":0,"ZN":3,"WARD":0,"LAT":13.15066,"LONG_":80.26098,"LOCATION":"Velu street, Chinnasekkadu","TYPE":"Ordinary Compost"},"geometry":{"type":"Point","coordinates":[80.2609799997244,13.1506600000207]}}
{"type":"Feature","properties":{"OBJECTID":5,"SL_NO":0,"ZN":4,"WARD":0,"LAT":13.148487,"LONG_":80.250778,"LOCATION":"Manali salai burial ground","TYPE":"Ordinary Compost"},"geometry":{"type":"Point","coordinates":[80.250778000206,13.1484870002045]}}
{"type":"Feature","properties":{"OBJECTID":6,"SL_NO":0,"ZN":4,"WARD":0,"LAT":13.1444,"LONG_":80.24324,"LOCATION":"Arul Nagar Main Road","TYPE":"Ordinary Compost"},"geometry":{"type":"Point","coordinates":[80.2432400000786,13.1443999996321]}}
{"type":"Feature","properties":{"OBJECTID":7,"SL_NO":0,"ZN":4,"WARD":0,"LAT":13.13762,"LONG_":80.2456,"LOCATION":"6th main road Muthamil Nagar 2nd block","TYPE":"Ordinary Compost"},"geometry":{"type":"Point","coordinates":[80.245600000242,13.1376200000163]}}
{"type":"Feature","properties":{"OBJECTID":8,"SL_NO":0,"ZN":4,"WARD":0,"LAT":13.13544,"LONG_":80.25328,"LOCATION":"Anjugam Nagar","TYPE":"Ordinary Compost"},"geometry":{"type":"Point","coordinates":[80.2532800003674,13.1354399999091]}}
{"type":"Feature","properties":{"OBJECTID":9,"SL_NO":0,"ZN":4,"WARD":0,"LAT":13.1245,"LONG_":80.2483,"LOCATION":"Pappathimman Kovil Street, Suzhpunalkarai","TYPE":"Ordinary Compost"},"geometry":{"type":"Point","coordinates":[80.248300000262,13.1245000001479]}}
{"type":"Feature","properties":{"OBJECTID":10,"SL_NO":0,"ZN":4,"WARD":0,"LAT":13.1264,"LONG_":80.26194,"LOCATION":"Burial Ground","TYPE":"Ordinary Compost"},"geometry":{"type":"Point","coordinates":[80.2619400000163,13.1264000003824]}}
{"type":"Feature","properties":{"OBJECTID":11,"SL_NO":0,"ZN":4,"WARD":0,"LAT":13.1264,"LONG_":80.264,"LOCATION":"North Avenue Road","TYPE":"Ordinary Compost"},"geometry":{"type":"Point","coordinates":[80.2640000000831,13.126399999893]}}
{"type":"Feature","properties":{"OBJECTID":12,"SL_NO":0,"ZN":4,"WARD":0,"LAT":13.13182,"LONG_":80.27958,"LOCATION":"EH Road Near Division Office Back Side","TYPE":"Ordinary Compost"},"geometry":{"type":"Point","coordinates":[80.279579999578,13.1318200004394]}}
{"type":"Feature","properties":{"OBJECTID":13,"SL_NO":0,"ZN":4,"WARD":0,"LAT":13.13182,"LONG_":80.27958,"LOCATION":"Nehru Nagar 14th street","TYPE":"Ordinary Compost"},"geometry":{"type":"Point","coordinates":[80.279579999578,13.1318200004394]}}
{"type":"Feature","properties":{"OBJECTID":14,"SL_NO":0,"ZN":4,"WARD":0,"LAT":13.1334,"LONG_":80.29245,"LOCATION":"AE Kovil Street","TYPE":"Ordinary Compost"},"geometry":{"type":"Point","coordinates":[80.2924499999423,13.133400000089]}}
{"type":"Feature","properties":{"OBJECTID":15,"SL_NO":0,"ZN":4,"WARD":0,"LAT":13.12827,"LONG_":80.28375,"LOCATION":"Thiruvalluvar  Qauarters","TYPE":"Ordinary Compost"},"geometry":{"type":"Point","coordinates":[80.2837500002909,13.1282700002997]}}
{"type":"Feature","properties":{"OBJECTID":16,"SL_NO":0,"ZN":4,"WARD":0,"LAT":13.1202,"LONG_":80.2724,"LOCATION":"Lime Klin Road Near Thiruvalluvar Nagar","TYPE":"Ordinary Compost"},"geometry":{"type":"Point","coordinates":[80.2723999995782,13.1201999996143]}}
{"type":"Feature","properties":{"OBJECTID":17,"SL_NO":0,"ZN":4,"WARD":0,"LAT":13.1276,"LONG_":80.29593,"LOCATION":"Thilagar Nagar ( TNSCB )","TYPE":"Ordinary Compost"},"geometry":{"type":"Point","coordinates":[80.2959300001597,13.1276000000567]}}
{"type":"Feature","properties":{"OBJECTID":18,"SL_NO":0,"ZN":4,"WARD":0,"LAT":13.12966,"LONG_":80.29593,"LOCATION":"Kasimedu Burial Ground","TYPE":"Ordinary Compost"},"geometry":{"type":"Point","coordinates":[80.2959299999096,13.1296599997431]}}
{"type":"Feature","properties":{"OBJECTID":19,"SL_NO":0,"ZN":4,"WARD":0,"LAT":13.1155,"LONG_":80.247,"LOCATION":"Rani Ammaiyar Street ( Near Nagathamman Temple )","TYPE":"Ordinary Compost"},"geometry":{"type":"Point","coordinates":[80.2470000000063,13.1154999998536]}}
{"type":"Feature","properties":{"OBJECTID":20,"SL_NO":0,"ZN":4,"WARD":0,"LAT":13.11719,"LONG_":80.25585,"LOCATION":"MPM Street ( Fire Service )","TYPE":"Ordinary Compost"},"geometry":{"type":"Point","coordinates":[80.255850000392,13.1171900000293]}}
{"type":"Feature","properties":{"OBJECTID":21,"SL_NO":0,"ZN":4,"WARD":0,"LAT":13.11321,"LONG_":80.25698,"LOCATION":"MPM Street ( Old MLA Office opposite )","TYPE":"Ordinary Compost"},"geometry":{"type":"Point","coordinates":[80.256979999608,13.1132100003592]}}
{"type":"Feature","properties":{"OBJECTID":22,"SL_NO":0,"ZN":4,"WARD":0,"LAT":13.11719,"LONG_":80.25585,"LOCATION":"Clinic road","TYPE":"Ordinary Compost"},"geometry":{"type":"Point","coordinates":[80.255850000392,13.1171900000293]}}
{"type":"Feature","properties":{"OBJECTID":23,"SL_NO":0,"ZN":4,"WARD":0,"LAT":13.11584,"LONG_":80.27229,"LOCATION":"B Canal","TYPE":"Ordinary Compost"},"geometry":{"type":"Point","coordinates":[80.2722900004235,13.1158399997688]}}
{"type":"Feature","properties":{"OBJECTID":24,"SL_NO":0,"ZN":4,"WARD":0,"LAT":13.44557,"LONG_":80.27618,"LOCATION":"C.B Road oswal apartments Back Side","TYPE":"Ordinary Compost"},"geometry":{"type":"Point","coordinates":[80.2761800003442,13.4455699997678]}}
{"type":"Feature","properties":{"OBJECTID":25,"SL_NO":0,"ZN":4,"WARD":0,"LAT":13.1044,"LONG_":80.27541,"LOCATION":"Zone-IV TPF","TYPE":"Ordinary Compost"},"geometry":{"type":"Point","coordinates":[80.2754100004185,13.1044000001589]}}
{"type":"Feature","properties":{"OBJECTID":26,"SL_NO":0,"ZN":4,"WARD":0,"LAT":13.1255,"LONG_":80.2758,"LOCATION":"Parthasarthy Street  Near (Unit-11 Office)","TYPE":"Ordinary Compost"},"geometry":{"type":"Point","coordinates":[80.2757999997755,13.1255000003581]}}
{"type":"Feature","properties":{"OBJECTID":27,"SL_NO":0,"ZN":5,"WARD":0,"LAT":13.106819,"LONG_":80.291203,"LOCATION":"O.S.H road","TYPE":"Ordinary Compost"},"geometry":{"type":"Point","coordinates":[80.2912029996025,13.1068189995849]}}
{"type":"Feature","properties":{"OBJECTID":28,"SL_NO":0,"ZN":5,"WARD":0,"LAT":13.102523,"LONG_":80.27006,"LOCATION":"Moolakothalam Burial Ground","TYPE":"Ordinary Compost"},"geometry":{"type":"Point","coordinates":[80.2700599996594,13.1025226998865]}}
{"type":"Feature","properties":{"OBJECTID":29,"SL_NO":0,"ZN":5,"WARD":0,"LAT":13.10289,"LONG_":80.27403,"LOCATION":"Wall tax road","TYPE":"Ordinary Compost"},"geometry":{"type":"Point","coordinates":[80.2740299999553,13.1028900000387]}}
{"type":"Feature","properties":{"OBJECTID":30,"SL_NO":0,"ZN":5,"WARD":0,"LAT":13.07257,"LONG_":80.265,"LOCATION":"Ayya Sami Street, Old TPF","TYPE":"Ordinary Compost"},"geometry":{"type":"Point","coordinates":[80.2650000000199,13.072570000372]}}
{"type":"Feature","properties":{"OBJECTID":31,"SL_NO":0,"ZN":5,"WARD":0,"LAT":13.072195,"LONG_":80.270965,"LOCATION":"Adhi kesavalu street","TYPE":"Ordinary Compost"},"geometry":{"type":"Point","coordinates":[80.2709650000387,13.0721949999441]}}
{"type":"Feature","properties":{"OBJECTID":32,"SL_NO":0,"ZN":6,"WARD":0,"LAT":13.12459,"LONG_":80.22141,"LOCATION":"Sembium Redhills Road - Uzhavar Santhai","TYPE":"Ordinary Compost"},"geometry":{"type":"Point","coordinates":[80.2214099995588,13.1245899997252]}}
{"type":"Feature","properties":{"OBJECTID":33,"SL_NO":0,"ZN":6,"WARD":0,"LAT":13.111641,"LONG_":80.215523,"LOCATION":"Jambulingam Main Road Burial ground","TYPE":"Ordinary Compost"},"geometry":{"type":"Point","coordinates":[80.2155230002128,13.1116409998588]}}
{"type":"Feature","properties":{"OBJECTID":34,"SL_NO":0,"ZN":6,"WARD":0,"LAT":13.111862,"LONG_":80.23205,"LOCATION":"Thanthonriamman Koil street in open ground (1)","TYPE":"Ordinary Compost"},"geometry":{"type":"Point","coordinates":[80.2320500004026,13.111861890089]}}
{"type":"Feature","properties":{"OBJECTID":35,"SL_NO":0,"ZN":6,"WARD":0,"LAT":13.111862,"LONG_":80.23205,"LOCATION":"Thanthonriamman Koil street in open ground (2)","TYPE":"Ordinary Compost"},"geometry":{"type":"Point","coordinates":[80.2320500004026,13.111861890089]}}
{"type":"Feature","properties":{"OBJECTID":36,"SL_NO":0,"ZN":6,"WARD":0,"LAT":13.12234,"LONG_":80.23829,"LOCATION":"Thangal burila ground - Pallavan Salai BG","TYPE":"Ordinary Compost"},"geometry":{"type":"Point","coordinates":[80.2382899998744,13.1223400001721]}}
{"type":"Feature","properties":{"OBJECTID":37,"SL_NO":0,"ZN":6,"WARD":0,"LAT":13.10919,"LONG_":80.24318,"LOCATION":"Anderson Road (open Bus Depot)","TYPE":"Ordinary Compost"},"geometry":{"type":"Point","coordinates":[80.2431799999987,13.1091899996646]}}
{"type":"Feature","properties":{"OBJECTID":38,"SL_NO":0,"ZN":6,"WARD":0,"LAT":13.105737,"LONG_":80.252785,"LOCATION":"Tank Link raod (opp to DRBCC ground)","TYPE":"Ordinary Compost"},"geometry":{"type":"Point","coordinates":[80.2527849995517,13.1057366695498]}}
{"type":"Feature","properties":{"OBJECTID":39,"SL_NO":0,"ZN":6,"WARD":0,"LAT":13.10981,"LONG_":80.244,"LOCATION":"Perambur High Road South( near rajiv Gandhi park)","TYPE":"Ordinary Compost"},"geometry":{"type":"Point","coordinates":[80.2440000000014,13.1098100000401]}}
{"type":"Feature","properties":{"OBJECTID":40,"SL_NO":0,"ZN":6,"WARD":0,"LAT":13.105737,"LONG_":80.252785,"LOCATION":"Tank Link raod (opp to DRBCC ground)","TYPE":"Ordinary Compost"},"geometry":{"type":"Point","coordinates":[80.2527849995517,13.1057366695498]}}
{"type":"Feature","properties":{"OBJECTID":41,"SL_NO":0,"ZN":6,"WARD":0,"LAT":13.107308,"LONG_":80.246367,"LOCATION":"Perambur High Road South (Old Lorry Station)","TYPE":"Ordinary Compost"},"geometry":{"type":"Point","coordinates":[80.2463666597329,13.1073083304362]}}
{"type":"Feature","properties":{"OBJECTID":42,"SL_NO":0,"ZN":6,"WARD":0,"LAT":13.10726,"LONG_":80.26695,"LOCATION":"Kannigapuram","TYPE":"Ordinary Compost"},"geometry":{"type":"Point","coordinates":[80.2669500002492,13.1072599995502]}}
{"type":"Feature","properties":{"OBJECTID":43,"SL_NO":0,"ZN":6,"WARD":0,"LAT":13.0987,"LONG_":80.25719,"LOCATION":"New Ferrance Road","TYPE":"Ordinary Compost"},"geometry":{"type":"Point","coordinates":[80.257189999841,13.0986999998888]}}
{"type":"Feature","properties":{"OBJECTID":44,"SL_NO":0,"ZN":6,"WARD":0,"LAT":13.09359,"LONG_":80.24275,"LOCATION":"Pumping Station Near Govt Politechnic","TYPE":"Ordinary Compost"},"geometry":{"type":"Point","coordinates":[80.242750000209,13.093590000163]}}
{"type":"Feature","properties":{"OBJECTID":45,"SL_NO":0,"ZN":6,"WARD":0,"LAT":13.093538,"LONG_":80.242944,"LOCATION":"Otteri Dumping Ground","TYPE":"Ordinary Compost"},"geometry":{"type":"Point","coordinates":[80.2429439996882,13.0935379996627]}}
{"type":"Feature","properties":{"OBJECTID":46,"SL_NO":0,"ZN":6,"WARD":0,"LAT":13.09353,"LONG_":80.24294,"LOCATION":"Barackka Road (opp to G5 Police station)","TYPE":"Ordinary Compost"},"geometry":{"type":"Point","coordinates":[80.2429399995496,13.0935300002765]}}
{"type":"Feature","properties":{"OBJECTID":47,"SL_NO":0,"ZN":6,"WARD":0,"LAT":13.092706,"LONG_":80.249229,"LOCATION":"Contransmith nagar (Division Office)","TYPE":"Ordinary Compost"},"geometry":{"type":"Point","coordinates":[80.2492289997096,13.0927061596945]}}
{"type":"Feature","properties":{"OBJECTID":48,"SL_NO":0,"ZN":6,"WARD":0,"LAT":13.09596,"LONG_":80.25811,"LOCATION":"Perambur Baracks Road (old division office)","TYPE":"Ordinary Compost"},"geometry":{"type":"Point","coordinates":[80.2581100003921,13.0959599996213]}}
{"type":"Feature","properties":{"OBJECTID":49,"SL_NO":0,"ZN":6,"WARD":0,"LAT":13.094379,"LONG_":80.268516,"LOCATION":"Elephantgate Rd","TYPE":"Ordinary Compost"},"geometry":{"type":"Point","coordinates":[80.2685158798004,13.0943785096926]}}
{"type":"Feature","properties":{"OBJECTID":50,"SL_NO":0,"ZN":6,"WARD":0,"LAT":13.093204,"LONG_":80.262578,"LOCATION":"Astabujam Rd (Division Office)","TYPE":"Ordinary Compost"},"geometry":{"type":"Point","coordinates":[80.2625777996175,13.0932035403022]}}
{"type":"Feature","properties":{"OBJECTID":51,"SL_NO":0,"ZN":6,"WARD":0,"LAT":13.09177,"LONG_":80.25896,"LOCATION":"Manikkam Street (jn of perambur baracks road)","TYPE":"Ordinary Compost"},"geometry":{"type":"Point","coordinates":[80.2589600001028,13.0917699995843]}}
{"type":"Feature","properties":{"OBJECTID":52,"SL_NO":0,"ZN":6,"WARD":0,"LAT":13.091829,"LONG_":80.259178,"LOCATION":"Chokkavel Subramaniam Street (Kuravan Kulam)","TYPE":"Ordinary Compost"},"geometry":{"type":"Point","coordinates":[80.2591783604143,13.0918285096687]}}
{"type":"Feature","properties":{"OBJECTID":53,"SL_NO":0,"ZN":7,"WARD":0,"LAT":13.1405,"LONG_":80.15835,"LOCATION":"oragadam Burial ground","TYPE":"Ordinary Compost"},"geometry":{"type":"Point","coordinates":[80.1583500002938,13.1404999998507]}}
{"type":"Feature","properties":{"OBJECTID":54,"SL_NO":0,"ZN":7,"WARD":0,"LAT":13.12324,"LONG_":80.15955,"LOCATION":"Thangal lake park","TYPE":"Ordinary Compost"},"geometry":{"type":"Point","coordinates":[80.1595499999726,13.1232400001368]}}
{"type":"Feature","properties":{"OBJECTID":55,"SL_NO":0,"ZN":7,"WARD":0,"LAT":13.12493,"LONG_":80.16946,"LOCATION":"Menambedu burial ground","TYPE":"Ordinary Compost"},"geometry":{"type":"Point","coordinates":[80.169459999717,13.1249299998191]}}
{"type":"Feature","properties":{"OBJECTID":56,"SL_NO":0,"ZN":7,"WARD":0,"LAT":13.12505,"LONG_":80.16957,"LOCATION":"Menambedu burial ground","TYPE":"Ordinary Compost"},"geometry":{"type":"Point","coordinates":[80.1695700000045,13.1250499999418]}}
{"type":"Feature","properties":{"OBJECTID":57,"SL_NO":0,"ZN":7,"WARD":0,"LAT":13.11134,"LONG_":80.18716,"LOCATION":"TNHB 61th street Park","TYPE":"Ordinary Compost"},"geometry":{"type":"Point","coordinates":[80.1871599999231,13.1113399998117]}}
{"type":"Feature","properties":{"OBJECTID":58,"SL_NO":0,"ZN":7,"WARD":0,"LAT":13.09949,"LONG_":80.18716,"LOCATION":"kannagi Nagar Burial ground","TYPE":"Ordinary Compost"},"geometry":{"type":"Point","coordinates":[80.1871599997602,13.0994900002647]}}
{"type":"Feature","properties":{"OBJECTID":59,"SL_NO":0,"ZN":7,"WARD":0,"LAT":13.0994,"LONG_":80.15037,"LOCATION":"Athipet Dumping Yard","TYPE":"Ordinary Compost"},"geometry":{"type":"Point","coordinates":[80.1503699997298,13.0994000001602]}}
{"type":"Feature","properties":{"OBJECTID":60,"SL_NO":0,"ZN":7,"WARD":0,"LAT":13.09782,"LONG_":80.14983,"LOCATION":"Athipet Dumping Yard","TYPE":"Ordinary Compost"},"geometry":{"type":"Point","coordinates":[80.1498300000115,13.0978199995582]}}
{"type":"Feature","properties":{"OBJECTID":61,"SL_NO":0,"ZN":7,"WARD":0,"LAT":13.09191,"LONG_":80.17723,"LOCATION":"Burial ground,Mogappair road,Dn - 92","TYPE":"Ordinary Compost"},"geometry":{"type":"Point","coordinates":[80.1772300003427,13.0919100000642]}}
{"type":"Feature","properties":{"OBJECTID":62,"SL_NO":0,"ZN":7,"WARD":0,"LAT":13.09036,"LONG_":80.19418,"LOCATION":"Pandurangapuram Burial Ground","TYPE":"Ordinary Compost"},"geometry":{"type":"Point","coordinates":[80.1941799995546,13.0903599998289]}}
{"type":"Feature","properties":{"OBJECTID":63,"SL_NO":0,"ZN":7,"WARD":0,"LAT":13.07765,"LONG_":80.18068,"LOCATION":"Elango Nagar Burial ground","TYPE":"Ordinary Compost"},"geometry":{"type":"Point","coordinates":[80.1806799996929,13.0776500002455]}}
{"type":"Feature","properties":{"OBJECTID":64,"SL_NO":0,"ZN":7,"WARD":0,"LAT":13.07923,"LONG_":80.19062,"LOCATION":"Padikuppam Burial ground road","TYPE":"Ordinary Compost"},"geometry":{"type":"Point","coordinates":[80.1906200004269,13.0792300000445]}}
{"type":"Feature","properties":{"OBJECTID":65,"SL_NO":0,"ZN":7,"WARD":0,"LAT":13.08389,"LONG_":80.18834,"LOCATION":"Mogappair Eri Scheme 4th main road","TYPE":"Ordinary Compost"},"geometry":{"type":"Point","coordinates":[80.1883400003341,13.0838900001099]}}
{"type":"Feature","properties":{"OBJECTID":66,"SL_NO":0,"ZN":7,"WARD":0,"LAT":13.09191,"LONG_":80.17723,"LOCATION":"Mogappair Road,Burial ground","TYPE":"Ordinary Compost"},"geometry":{"type":"Point","coordinates":[80.1772300003427,13.0919100000642]}}
{"type":"Feature","properties":{"OBJECTID":67,"SL_NO":0,"ZN":7,"WARD":0,"LAT":13.07246,"LONG_":80.17978,"LOCATION":"Gangai amman koil street","TYPE":"Ordinary Compost"},"geometry":{"type":"Point","coordinates":[80.1797800004473,13.0724600003315]}}
{"type":"Feature","properties":{"OBJECTID":68,"SL_NO":0,"ZN":8,"WARD":0,"LAT":13.11562,"LONG_":80.20433,"LOCATION":"MTH Road (inside Burial Ground)","TYPE":"Ordinary Compost"},"geometry":{"type":"Point","coordinates":[80.2043300001292,13.1156199996601]}}
{"type":"Feature","properties":{"OBJECTID":69,"SL_NO":0,"ZN":8,"WARD":0,"LAT":13.1171,"LONG_":80.2012,"LOCATION":"R.K. Link road","TYPE":"Ordinary Compost"},"geometry":{"type":"Point","coordinates":[80.2012000003129,13.1171000003982]}}
{"type":"Feature","properties":{"OBJECTID":70,"SL_NO":0,"ZN":8,"WARD":0,"LAT":13.1034,"LONG_":80.1938,"LOCATION":"Vilivakkam Burilal Ground","TYPE":"Ordinary Compost"},"geometry":{"type":"Point","coordinates":[80.1937999998316,13.1033999998325]}}
{"type":"Feature","properties":{"OBJECTID":71,"SL_NO":0,"ZN":8,"WARD":0,"LAT":13.1171,"LONG_":80.2012,"LOCATION":"R.K. Link road","TYPE":"Ordinary Compost"},"geometry":{"type":"Point","coordinates":[80.2012000003129,13.1171000003982]}}
{"type":"Feature","properties":{"OBJECTID":72,"SL_NO":0,"ZN":8,"WARD":0,"LAT":13.10043,"LONG_":80.20749,"LOCATION":"New Avadi Road (near Slaughterhouse )","TYPE":"Ordinary Compost"},"geometry":{"type":"Point","coordinates":[80.2074899996118,13.1004299996379]}}
{"type":"Feature","properties":{"OBJECTID":73,"SL_NO":0,"ZN":8,"WARD":0,"LAT":13.1008,"LONG_":80.2019,"LOCATION":"Thirumangalam road","TYPE":"Ordinary Compost"},"geometry":{"type":"Point","coordinates":[80.2019000002265,13.1007999996044]}}
{"type":"Feature","properties":{"OBJECTID":74,"SL_NO":0,"ZN":8,"WARD":0,"LAT":13.07992,"LONG_":80.23468,"LOCATION":"Konnur High Road (Near Amma Unavagam Compost Yard)","TYPE":"Ordinary Compost"},"geometry":{"type":"Point","coordinates":[80.2346799998481,13.0799199996735]}}
{"type":"Feature","properties":{"OBJECTID":75,"SL_NO":0,"ZN":8,"WARD":0,"LAT":13.0977,"LONG_":80.2422,"LOCATION":"Konnur High Road  Near Amma Unavagam","TYPE":"Ordinary Compost"},"geometry":{"type":"Point","coordinates":[80.2422000000804,13.0977000002724]}}
{"type":"Feature","properties":{"OBJECTID":76,"SL_NO":0,"ZN":8,"WARD":0,"LAT":13.0997,"LONG_":80.2395,"LOCATION":"Konnur High, Sayani","TYPE":"Ordinary Compost"},"geometry":{"type":"Point","coordinates":[80.2395000003082,13.0996999998485]}}
{"type":"Feature","properties":{"OBJECTID":77,"SL_NO":0,"ZN":8,"WARD":0,"LAT":13.09295,"LONG_":80.22641,"LOCATION":"Muthamman Kovil Nagar","TYPE":"Ordinary Compost"},"geometry":{"type":"Point","coordinates":[80.2264099997255,13.0929500002452]}}
{"type":"Feature","properties":{"OBJECTID":78,"SL_NO":0,"ZN":8,"WARD":0,"LAT":13.1151,"LONG_":80.2233,"LOCATION":"Thandhai Periyar Nagar","TYPE":"Ordinary Compost"},"geometry":{"type":"Point","coordinates":[80.2233000001102,13.1151000003636]}}
{"type":"Feature","properties":{"OBJECTID":79,"SL_NO":0,"ZN":8,"WARD":0,"LAT":13.116,"LONG_":80.2375,"LOCATION":"Kunjudham Kurusamy street","TYPE":"Ordinary Compost"},"geometry":{"type":"Point","coordinates":[80.2374999998623,13.1160000004459]}}
{"type":"Feature","properties":{"OBJECTID":80,"SL_NO":0,"ZN":8,"WARD":0,"LAT":13.08549,"LONG_":80.2399,"LOCATION":"Aspiran Garden 1st street","TYPE":"Ordinary Compost"},"geometry":{"type":"Point","coordinates":[80.2398999998474,13.0854900004124]}}
{"type":"Feature","properties":{"OBJECTID":81,"SL_NO":0,"ZN":8,"WARD":0,"LAT":13.0867,"LONG_":80.2352,"LOCATION":"Samydhasan  Puram","TYPE":"Ordinary Compost"},"geometry":{"type":"Point","coordinates":[80.2351999996846,13.0866999999512]}}
{"type":"Feature","properties":{"OBJECTID":82,"SL_NO":0,"ZN":8,"WARD":0,"LAT":13.09256,"LONG_":80.21109,"LOCATION":"6th Avenue ( EB Office Opp)","TYPE":"Ordinary Compost"},"geometry":{"type":"Point","coordinates":[80.2110900002515,13.0925599996353]}}
{"type":"Feature","properties":{"OBJECTID":83,"SL_NO":0,"ZN":8,"WARD":0,"LAT":13.09256,"LONG_":80.21109,"LOCATION":"6th Avenue (1)","TYPE":"Ordinary Compost"},"geometry":{"type":"Point","coordinates":[80.2110900002515,13.0925599996353]}}
{"type":"Feature","properties":{"OBJECTID":84,"SL_NO":0,"ZN":8,"WARD":0,"LAT":13.0759,"LONG_":80.2147,"LOCATION":"Arumpakkam Burial Ground (1)","TYPE":"Ordinary Compost"},"geometry":{"type":"Point","coordinates":[80.214699999626,13.075900000069]}}
{"type":"Feature","properties":{"OBJECTID":85,"SL_NO":0,"ZN":8,"WARD":0,"LAT":13.09256,"LONG_":80.21109,"LOCATION":"6th Avenue (2)","TYPE":"Ordinary Compost"},"geometry":{"type":"Point","coordinates":[80.2110900002515,13.0925599996353]}}
{"type":"Feature","properties":{"OBJECTID":86,"SL_NO":0,"ZN":8,"WARD":0,"LAT":13.0759,"LONG_":80.2147,"LOCATION":"Arumpakkam Burial Ground (2)","TYPE":"Ordinary Compost"},"geometry":{"type":"Point","coordinates":[80.214699999626,13.075900000069]}}
{"type":"Feature","properties":{"OBJECTID":87,"SL_NO":0,"ZN":8,"WARD":0,"LAT":13.0759,"LONG_":80.2147,"LOCATION":"Arumpakkam Burial Ground (3)","TYPE":"Ordinary Compost"},"geometry":{"type":"Point","coordinates":[80.214699999626,13.075900000069]}}
{"type":"Feature","properties":{"OBJECTID":88,"SL_NO":0,"ZN":8,"WARD":0,"LAT":13.09534,"LONG_":80.2219,"LOCATION":"N Block","TYPE":"Ordinary Compost"},"geometry":{"type":"Point","coordinates":[80.2218999997152,13.0953400001918]}}
{"type":"Feature","properties":{"OBJECTID":89,"SL_NO":0,"ZN":8,"WARD":0,"LAT":13.0815,"LONG_":80.2201,"LOCATION":"Cresent Ply ground","TYPE":"Ordinary Compost"},"geometry":{"type":"Point","coordinates":[80.2201000000232,13.0814999999356]}}
{"type":"Feature","properties":{"OBJECTID":90,"SL_NO":0,"ZN":8,"WARD":0,"LAT":13.087721,"LONG_":80.234301,"LOCATION":"Cementry Road Burial Ground in side","TYPE":"Ordinary Compost"},"geometry":{"type":"Point","coordinates":[80.2343010003149,13.0877210001772]}}
{"type":"Feature","properties":{"OBJECTID":91,"SL_NO":0,"ZN":8,"WARD":0,"LAT":13.0842,"LONG_":80.2306,"LOCATION":"Jn .Of Kilpauk Garden Road & cemetry Road","TYPE":"Ordinary Compost"},"geometry":{"type":"Point","coordinates":[80.2306000004244,13.0842000004098]}}
{"type":"Feature","properties":{"OBJECTID":92,"SL_NO":0,"ZN":8,"WARD":0,"LAT":13.0877,"LONG_":80.2323,"LOCATION":"New avadi Road","TYPE":"Ordinary Compost"},"geometry":{"type":"Point","coordinates":[80.2323000002851,13.0876999996624]}}
{"type":"Feature","properties":{"OBJECTID":93,"SL_NO":0,"ZN":8,"WARD":0,"LAT":13.07992,"LONG_":80.23468,"LOCATION":"Temple Street","TYPE":"Ordinary Compost"},"geometry":{"type":"Point","coordinates":[80.2346799998481,13.0799199996735]}}
{"type":"Feature","properties":{"OBJECTID":94,"SL_NO":0,"ZN":8,"WARD":0,"LAT":13.09056,"LONG_":80.24923,"LOCATION":"Bricklin Road Burial Gound in side","TYPE":"Ordinary Compost"},"geometry":{"type":"Point","coordinates":[80.2492299998327,13.0905600002346]}}
{"type":"Feature","properties":{"OBJECTID":95,"SL_NO":0,"ZN":8,"WARD":0,"LAT":13.0907,"LONG_":80.2514,"LOCATION":"Otteri Burial Ground","TYPE":"Ordinary Compost"},"geometry":{"type":"Point","coordinates":[80.2514000002387,13.09069999963]}}
{"type":"Feature","properties":{"OBJECTID":96,"SL_NO":0,"ZN":8,"WARD":0,"LAT":13.06883,"LONG_":80.21698,"LOCATION":"Kalki nagar main road","TYPE":"Ordinary Compost"},"geometry":{"type":"Point","coordinates":[80.2169799998424,13.0688299998089]}}
{"type":"Feature","properties":{"OBJECTID":97,"SL_NO":0,"ZN":8,"WARD":0,"LAT":13.07426,"LONG_":80.23982,"LOCATION":"McNichols Road Old Zone -5 Office","TYPE":"Ordinary Compost"},"geometry":{"type":"Point","coordinates":[80.2398200001089,13.0742600002098]}}
{"type":"Feature","properties":{"OBJECTID":98,"SL_NO":0,"ZN":8,"WARD":0,"LAT":13.0713,"LONG_":80.2479,"LOCATION":"Meyar Ramanadhan Salai","TYPE":"Ordinary Compost"},"geometry":{"type":"Point","coordinates":[80.2479000003709,13.0712999998393]}}
{"type":"Feature","properties":{"OBJECTID":99,"SL_NO":0,"ZN":8,"WARD":0,"LAT":13.0407,"LONG_":80.13011,"LOCATION":"Water Tank Road","TYPE":"Ordinary Compost"},"geometry":{"type":"Point","coordinates":[80.1301100002779,13.0407000002831]}}
{"type":"Feature","properties":{"OBJECTID":100,"SL_NO":0,"ZN":9,"WARD":0,"LAT":13.06377,"LONG_":80.22438,"LOCATION":"Central School Road","TYPE":"Ordinary Compost"},"geometry":{"type":"Point","coordinates":[80.2243800002809,13.0637699999784]}}
{"type":"Feature","properties":{"OBJECTID":101,"SL_NO":0,"ZN":9,"WARD":0,"LAT":13.06654,"LONG_":80.23396,"LOCATION":"Nungambakkam Burial Ground","TYPE":"Ordinary Compost"},"geometry":{"type":"Point","coordinates":[80.2339600003509,13.0665399996142]}}
{"type":"Feature","properties":{"OBJECTID":102,"SL_NO":0,"ZN":9,"WARD":0,"LAT":13.06181,"LONG_":80.2597,"LOCATION":"Spencer Plaza Park","TYPE":"Ordinary Compost"},"geometry":{"type":"Point","coordinates":[80.2597000003513,13.0618099998371]}}
{"type":"Feature","properties":{"OBJECTID":103,"SL_NO":0,"ZN":9,"WARD":0,"LAT":13.05512,"LONG_":80.22589,"LOCATION":"Puliyur 1 St Main Road","TYPE":"Ordinary Compost"},"geometry":{"type":"Point","coordinates":[80.2258900001684,13.0551200002338]}}
{"type":"Feature","properties":{"OBJECTID":104,"SL_NO":0,"ZN":9,"WARD":0,"LAT":13.0573,"LONG_":80.24279,"LOCATION":"Valluvarkottam High Road","TYPE":"Ordinary Compost"},"geometry":{"type":"Point","coordinates":[80.2427900002622,13.0573000000155]}}
{"type":"Feature","properties":{"OBJECTID":105,"SL_NO":0,"ZN":9,"WARD":0,"LAT":13.06081,"LONG_":80.26953,"LOCATION":"Mir Bakshi Ali Street","TYPE":"Ordinary Compost"},"geometry":{"type":"Point","coordinates":[80.2695299998422,13.060809999952]}}
{"type":"Feature","properties":{"OBJECTID":106,"SL_NO":0,"ZN":9,"WARD":0,"LAT":13.05123,"LONG_":80.27774,"LOCATION":"Dr.Besant Road","TYPE":"Ordinary Compost"},"geometry":{"type":"Point","coordinates":[80.2777399999437,13.0512300002863]}}
{"type":"Feature","properties":{"OBJECTID":107,"SL_NO":0,"ZN":9,"WARD":0,"LAT":13.03956,"LONG_":80.246,"LOCATION":"Thiru.Vi.Ka.Kudiyiruppa","TYPE":"Ordinary Compost"},"geometry":{"type":"Point","coordinates":[80.2460000003748,13.0395600004025]}}
{"type":"Feature","properties":{"OBJECTID":108,"SL_NO":0,"ZN":9,"WARD":0,"LAT":13.03632,"LONG_":80.24744,"LOCATION":"Scheme Road","TYPE":"Ordinary Compost"},"geometry":{"type":"Point","coordinates":[80.2474399998367,13.0363200003297]}}
{"type":"Feature","properties":{"OBJECTID":109,"SL_NO":0,"ZN":9,"WARD":0,"LAT":13.03963,"LONG_":80.259,"LOCATION":"C.I.T Colony 6th Cross St","TYPE":"Ordinary Compost"},"geometry":{"type":"Point","coordinates":[80.2589999998814,13.0396299995666]}}
{"type":"Feature","properties":{"OBJECTID":110,"SL_NO":0,"ZN":9,"WARD":0,"LAT":13.05118,"LONG_":80.27756,"LOCATION":"Krishnapet Burial Ground","TYPE":"Ordinary Compost"},"geometry":{"type":"Point","coordinates":[80.2775599997788,13.0511799999507]}}
{"type":"Feature","properties":{"OBJECTID":111,"SL_NO":0,"ZN":9,"WARD":0,"LAT":13.05099,"LONG_":80.27757,"LOCATION":"Krishnapet Burial Ground","TYPE":"Ordinary Compost"},"geometry":{"type":"Point","coordinates":[80.2775700003776,13.0509899996327]}}
{"type":"Feature","properties":{"OBJECTID":112,"SL_NO":0,"ZN":9,"WARD":0,"LAT":13.03735,"LONG_":80.26369,"LOCATION":"C.P.Ramaswamy Road","TYPE":"Ordinary Compost"},"geometry":{"type":"Point","coordinates":[80.2636900001169,13.0373499996406]}}
{"type":"Feature","properties":{"OBJECTID":113,"SL_NO":0,"ZN":9,"WARD":0,"LAT":13.03632,"LONG_":80.26809,"LOCATION":"Kutchery Road","TYPE":"Ordinary Compost"},"geometry":{"type":"Point","coordinates":[80.2680900002427,13.0363199999141]}}
{"type":"Feature","properties":{"OBJECTID":114,"SL_NO":0,"ZN":9,"WARD":0,"LAT":13.04129,"LONG_":80.27677,"LOCATION":"Mylapore Burial Ground","TYPE":"Ordinary Compost"},"geometry":{"type":"Point","coordinates":[80.276770000357,13.0412899998301]}}
{"type":"Feature","properties":{"OBJECTID":115,"SL_NO":0,"ZN":9,"WARD":0,"LAT":13.02725,"LONG_":80.26061,"LOCATION":"Sringeri Mutt Road","TYPE":"Ordinary Compost"},"geometry":{"type":"Point","coordinates":[80.2606100004354,13.0272500003223]}}
{"type":"Feature","properties":{"OBJECTID":116,"SL_NO":0,"ZN":10,"WARD":0,"LAT":13.06645,"LONG_":80.206955,"LOCATION":"Saf Games Village","TYPE":"Ordinary Compost"},"geometry":{"type":"Point","coordinates":[80.2069549998569,13.066450000218]}}
{"type":"Feature","properties":{"OBJECTID":117,"SL_NO":0,"ZN":10,"WARD":0,"LAT":13.05444,"LONG_":80.1872,"LOCATION":"Virugambakkam, Burial Ground (Dn 128)","TYPE":"Ordinary Compost"},"geometry":{"type":"Point","coordinates":[80.1871999998051,13.0544400000034]}}
{"type":"Feature","properties":{"OBJECTID":118,"SL_NO":0,"ZN":10,"WARD":0,"LAT":13.02518,"LONG_":80.212726,"LOCATION":"West Saidapet,Burial Ground (Dn 139)","TYPE":"Ordinary Compost"},"geometry":{"type":"Point","coordinates":[80.212725999907,13.0251800003814]}}
{"type":"Feature","properties":{"OBJECTID":119,"SL_NO":0,"ZN":10,"WARD":0,"LAT":13.03039,"LONG_":80.229539,"LOCATION":"Kannamapet,Burial Ground (Dn 141)","TYPE":"Ordinary Compost"},"geometry":{"type":"Point","coordinates":[80.2295390004047,13.0303899999418]}}
{"type":"Feature","properties":{"OBJECTID":120,"SL_NO":0,"ZN":10,"WARD":0,"LAT":13.029781,"LONG_":80.197482,"LOCATION":"Annai Sathya Nagar Burial Ground (Dn 138)","TYPE":"Ordinary Compost"},"geometry":{"type":"Point","coordinates":[80.197481999621,13.0297810002304]}}
{"type":"Feature","properties":{"OBJECTID":121,"SL_NO":0,"ZN":10,"WARD":0,"LAT":13.027093,"LONG_":80.22422,"LOCATION":"Reddykuppam Raod","TYPE":"Ordinary Compost"},"geometry":{"type":"Point","coordinates":[80.2242199996671,13.0270929997857]}}
{"type":"Feature","properties":{"OBJECTID":122,"SL_NO":0,"ZN":10,"WARD":0,"LAT":13.024122,"LONG_":80.224376,"LOCATION":"Jeenes Road","TYPE":"Ordinary Compost"},"geometry":{"type":"Point","coordinates":[80.2243760003494,13.0241219998463]}}
{"type":"Feature","properties":{"OBJECTID":123,"SL_NO":0,"ZN":11,"WARD":0,"LAT":13.05764,"LONG_":80.17435,"LOCATION":"Gangai Amman Koil Street","TYPE":"Ordinary Compost"},"geometry":{"type":"Point","coordinates":[80.174349999951,13.0576399997403]}}
{"type":"Feature","properties":{"OBJECTID":124,"SL_NO":0,"ZN":11,"WARD":0,"LAT":13.038204,"LONG_":80.149313,"LOCATION":"Gandhi Nagar Burial Ground","TYPE":"Ordinary Compost"},"geometry":{"type":"Point","coordinates":[80.1493129997611,13.0382040000241]}}
{"type":"Feature","properties":{"OBJECTID":125,"SL_NO":0,"ZN":11,"WARD":0,"LAT":13.038204,"LONG_":80.149313,"LOCATION":"Alapakkam cross street - Aerobic compost (1)","TYPE":"Ordinary Compost"},"geometry":{"type":"Point","coordinates":[80.1493129997611,13.0382040000241]}}
{"type":"Feature","properties":{"OBJECTID":126,"SL_NO":0,"ZN":11,"WARD":0,"LAT":13.038204,"LONG_":80.149313,"LOCATION":"Alapakkam cross street - Aerobic compost (2)","TYPE":"Ordinary Compost"},"geometry":{"type":"Point","coordinates":[80.1493129997611,13.0382040000241]}}
{"type":"Feature","properties":{"OBJECTID":127,"SL_NO":0,"ZN":12,"WARD":0,"LAT":13.023124,"LONG_":80.158227,"LOCATION":"XS Real Appartments, Nethaji street, Rajeswari Nagar","TYPE":"Ordinary Compost"},"geometry":{"type":"Point","coordinates":[80.1582269996028,13.0231239996803]}}
{"type":"Feature","properties":{"OBJECTID":128,"SL_NO":0,"ZN":12,"WARD":0,"LAT":13.02088,"LONG_":80.18833,"LOCATION":"Nandambakkam","TYPE":"Ordinary Compost"},"geometry":{"type":"Point","coordinates":[80.1883299998157,13.0208800000002]}}
{"type":"Feature","properties":{"OBJECTID":129,"SL_NO":0,"ZN":12,"WARD":0,"LAT":12.98009,"LONG_":80.164301,"LOCATION":"GST road, Opp to Airport, Meenambakkam","TYPE":"Ordinary Compost"},"geometry":{"type":"Point","coordinates":[80.1643009995814,12.9800899998988]}}
{"type":"Feature","properties":{"OBJECTID":130,"SL_NO":0,"ZN":12,"WARD":0,"LAT":12.99133,"LONG_":80.1869,"LOCATION":"Kannan Colony Burial Ground","TYPE":"Ordinary Compost"},"geometry":{"type":"Point","coordinates":[80.1869000004173,12.9913299996975]}}
{"type":"Feature","properties":{"OBJECTID":131,"SL_NO":0,"ZN":12,"WARD":0,"LAT":12.9933,"LONG_":80.206,"LOCATION":"Balakrishna Puram Burial Ground","TYPE":"Ordinary Compost"},"geometry":{"type":"Point","coordinates":[80.2060000004244,12.9932999996114]}}
{"type":"Feature","properties":{"OBJECTID":132,"SL_NO":0,"ZN":13,"WARD":0,"LAT":13.017112,"LONG_":80.214056,"LOCATION":"Arulayammanpet Burial ground","TYPE":"Ordinary Compost"},"geometry":{"type":"Point","coordinates":[80.2140559997073,13.0171119995691]}}
{"type":"Feature","properties":{"OBJECTID":133,"SL_NO":0,"ZN":13,"WARD":0,"LAT":13.0181,"LONG_":80.2725,"LOCATION":"MRC Nagar","TYPE":"Ordinary Compost"},"geometry":{"type":"Point","coordinates":[80.2725000000674,13.0181000001652]}}
{"type":"Feature","properties":{"OBJECTID":134,"SL_NO":0,"ZN":13,"WARD":0,"LAT":12.2772,"LONG_":80.2647,"LOCATION":"Rajasrinivasapuram Burial Ground","TYPE":"Ordinary Compost"},"geometry":{"type":"Point","coordinates":[80.2647000000856,12.2771999996772]}}
{"type":"Feature","properties":{"OBJECTID":135,"SL_NO":0,"ZN":14,"WARD":0,"LAT":12.959039,"LONG_":80.232574,"LOCATION":"Veerapandiya Kattabomman Street, Perungudi.","TYPE":"Ordinary Compost"},"geometry":{"type":"Point","coordinates":[80.2325740000587,12.9590390002377]}}
{"type":"Feature","properties":{"OBJECTID":136,"SL_NO":0,"ZN":14,"WARD":0,"LAT":12.9592,"LONG_":80.2326,"LOCATION":"4th Main Road Industrial Estate","TYPE":"Ordinary Compost"},"geometry":{"type":"Point","coordinates":[80.2325999995894,12.9592000002123]}}
{"type":"Feature","properties":{"OBJECTID":137,"SL_NO":0,"ZN":14,"WARD":0,"LAT":12.9598,"LONG_":80.2136,"LOCATION":"Pallikaranai old Dumping Ground (Front side)","TYPE":"Ordinary Compost"},"geometry":{"type":"Point","coordinates":[80.2135999998268,12.9597999996407]}}
{"type":"Feature","properties":{"OBJECTID":138,"SL_NO":0,"ZN":14,"WARD":0,"LAT":12.9598,"LONG_":80.2136,"LOCATION":"Pallikaranai old Dumping Ground (Back side)","TYPE":"Ordinary Compost"},"geometry":{"type":"Point","coordinates":[80.2135999998268,12.9597999996407]}}
{"type":"Feature","properties":{"OBJECTID":139,"SL_NO":0,"ZN":14,"WARD":0,"LAT":12.93089,"LONG_":80.21478,"LOCATION":"Malligeswaran Burial Ground, Thulukaththamman koil main Road","TYPE":"Ordinary Compost"},"geometry":{"type":"Point","coordinates":[80.2147800001787,12.9308900002315]}}
{"type":"Feature","properties":{"OBJECTID":140,"SL_NO":0,"ZN":14,"WARD":0,"LAT":12.91264,"LONG_":80.19651,"LOCATION":"Pudhu Nagar Burial Ground","TYPE":"Ordinary Compost"},"geometry":{"type":"Point","coordinates":[80.1965099996562,12.9126400003053]}}
{"type":"Feature","properties":{"OBJECTID":141,"SL_NO":0,"ZN":15,"WARD":0,"LAT":12.925075,"LONG_":80.241935,"LOCATION":"Kannagi Nagar 17 th Main Road","TYPE":"Ordinary Compost"},"geometry":{"type":"Point","coordinates":[80.2419349996266,12.9250749999271]}}
{"type":"Feature","properties":{"OBJECTID":142,"SL_NO":0,"ZN":15,"WARD":0,"LAT":12.916955,"LONG_":80.238219,"LOCATION":"kuppusamy Street","TYPE":"Ordinary Compost"},"geometry":{"type":"Point","coordinates":[80.2382190001352,12.9169549999979]}}
{"type":"Feature","properties":{"OBJECTID":143,"SL_NO":0,"ZN":15,"WARD":0,"LAT":12.882578,"LONG_":80.235166,"LOCATION":"TNHB B-6 Road shollinganallur","TYPE":"Ordinary Compost"},"geometry":{"type":"Point","coordinates":[80.2351660002623,12.8825780000206]}}
{"type":"Feature","properties":{"OBJECTID":144,"SL_NO":0,"ZN":15,"WARD":0,"LAT":12.4792,"LONG_":80.2601,"LOCATION":"TNSCB 9th Avenue chemancherry","TYPE":"Ordinary Compost"},"geometry":{"type":"Point","coordinates":[80.2601,12.479200000103]}}
